{
"type": "FeatureCollection",
"name": "King_County_Transit_Facilities_With_Bicycle_Lockers___bike_lockers_point",
"crs": { "type": "name", "properties": { "name": "urn:ogc:def:crs:OGC:1.3:CRS84" } },
"features": [
{ "type": "Feature", "properties": { "OBJECTID": 1, "FEATURE_ID": 580006, "CODE": 580, "NAME": "Renton Transit Center with bicycle lockers", "ADDRESS": "S 2nd & Burnett Ave S", "BIKE_LOCKERS": 0, "OnDemandeLockers": 8, "XCOORD": 1300374.0, "YCOORD": 178305.0, "LONGITUDE": -122.20852877, "LATITUDE": 47.4804824 }, "geometry": { "type": "Point", "coordinates": [ -122.208526455897228, 47.480484444815581 ] } },
{ "type": "Feature", "properties": { "OBJECTID": 2, "FEATURE_ID": 580009, "CODE": 580, "NAME": "Federal Way/S 320th St P&R with bicycle lockers", "ADDRESS": "32320 23rd Ave S", "BIKE_LOCKERS": 6, "OnDemandeLockers": 0, "XCOORD": 1276569.0, "YCOORD": 117481.0, "LONGITUDE": -122.30009101, "LATITUDE": 47.3125581 }, "geometry": { "type": "Point", "coordinates": [ -122.300087750457919, 47.312559948054485 ] } },
{ "type": "Feature", "properties": { "OBJECTID": 3, "FEATURE_ID": 580010, "CODE": 580, "NAME": "South Sammamish P&R with bicycle lockers", "ADDRESS": "3015 228th Ave SE", "BIKE_LOCKERS": 4, "OnDemandeLockers": 4, "XCOORD": 1343523.0, "YCOORD": 214596.0, "LONGITUDE": -122.03635052, "LATITUDE": 47.58194105 }, "geometry": { "type": "Point", "coordinates": [ -122.036348782852997, 47.581943448683113 ] } },
{ "type": "Feature", "properties": { "OBJECTID": 4, "FEATURE_ID": 580012, "CODE": 580, "NAME": "Houghton P&R with bicycle lockers", "ADDRESS": "7024 116th Ave NE", "BIKE_LOCKERS": 4, "OnDemandeLockers": 0, "XCOORD": 1307281.0, "YCOORD": 246636.0, "LONGITUDE": -122.18545535, "LATITUDE": 47.66811725 }, "geometry": { "type": "Point", "coordinates": [ -122.185453921742265, 47.668119310350782 ] } },
{ "type": "Feature", "properties": { "OBJECTID": 5, "FEATURE_ID": 580014, "CODE": 580, "NAME": "St Matthew Lutheran Church P&R with bicycle lockers", "ADDRESS": "2516 NE 16th St", "BIKE_LOCKERS": 2, "OnDemandeLockers": 0, "XCOORD": 1306549.0, "YCOORD": 187733.0, "LONGITUDE": -122.18423023, "LATITUDE": 47.50662489 }, "geometry": { "type": "Point", "coordinates": [ -122.184228068166803, 47.506626990673816 ] } },
{ "type": "Feature", "properties": { "OBJECTID": 6, "FEATURE_ID": 580016, "CODE": 580, "NAME": "South Bellevue P&R with bicycle lockers", "ADDRESS": "2700 Bellevue Way SE", "BIKE_LOCKERS": 0, "OnDemandeLockers": 0, "XCOORD": 1305529.0, "YCOORD": 216899.0, "LONGITUDE": -122.19043701, "LATITUDE": 47.58652169 }, "geometry": { "type": "Point", "coordinates": [ -122.190435209404072, 47.586523761646355 ] } },
{ "type": "Feature", "properties": { "OBJECTID": 7, "FEATURE_ID": 580017, "CODE": 580, "NAME": "Auburn P&R with bicycle lockers", "ADDRESS": "101 15th St NE", "BIKE_LOCKERS": 4, "OnDemandeLockers": 0, "XCOORD": 1294507.0, "YCOORD": 120312.0, "LONGITUDE": -122.22800176, "LATITUDE": 47.32123191 }, "geometry": { "type": "Point", "coordinates": [ -122.227998548790055, 47.321233908048804 ] } },
{ "type": "Feature", "properties": { "OBJECTID": 8, "FEATURE_ID": 580020, "CODE": 580, "NAME": "Eastgate P&R with bicycle lockers", "ADDRESS": "14200 SE Eastgate Way", "BIKE_LOCKERS": 14, "OnDemandeLockers": 8, "XCOORD": 1315162.0, "YCOORD": 214362.0, "LONGITUDE": -122.15123186, "LATITUDE": 47.58002646 }, "geometry": { "type": "Point", "coordinates": [ -122.151230051760848, 47.580028607897518 ] } },
{ "type": "Feature", "properties": { "OBJECTID": 9, "FEATURE_ID": 580031, "CODE": 580, "NAME": "Burien Transit Center Bicycle Lockers", "ADDRESS": "209 SW 148th St", "BIKE_LOCKERS": 0, "OnDemandeLockers": 8, "XCOORD": 1268353.0, "YCOORD": 175002.0, "LONGITUDE": -122.3377348, "LATITUDE": 47.46978675 }, "geometry": { "type": "Point", "coordinates": [ -122.337732412091228, 47.469788587871733 ] } },
{ "type": "Feature", "properties": { "OBJECTID": 10, "FEATURE_ID": 580034, "CODE": 580, "NAME": "Federal Way Transit Center with bicycle lockers", "ADDRESS": "31621 23rd Ave S", "BIKE_LOCKERS": 18, "OnDemandeLockers": 0, "XCOORD": 1275543.0, "YCOORD": 119393.0, "LONGITUDE": -122.30437334, "LATITUDE": 47.31774516 }, "geometry": { "type": "Point", "coordinates": [ -122.304370104504144, 47.317747001555198 ] } },
{ "type": "Feature", "properties": { "OBJECTID": 11, "FEATURE_ID": 580040, "CODE": 580, "NAME": "SODO Station with bicycle lockers", "ADDRESS": "500 S Lander St", "BIKE_LOCKERS": 0, "OnDemandeLockers": 30, "XCOORD": 1271719.0, "YCOORD": 215275.0, "LONGITUDE": -122.32728844, "LATITUDE": 47.58035364 }, "geometry": { "type": "Point", "coordinates": [ -122.327286577623497, 47.580355474443422 ] } },
{ "type": "Feature", "properties": { "OBJECTID": 12, "FEATURE_ID": 580008, "CODE": 580, "NAME": "Northgate Transit Center P&R with bicycle lockers", "ADDRESS": "10200 1st Ave NE", "BIKE_LOCKERS": 12, "OnDemandeLockers": 12, "XCOORD": 1272654.0, "YCOORD": 260013.0, "LONGITUDE": -122.3270183, "LATITUDE": 47.70302897 }, "geometry": { "type": "Point", "coordinates": [ -122.327016978036696, 47.70303076132744 ] } },
{ "type": "Feature", "properties": { "OBJECTID": 13, "FEATURE_ID": 580041, "CODE": 580, "NAME": "Tukwila International Blvd Station with bicycle lockers", "ADDRESS": "15426 35th Ave S", "BIKE_LOCKERS": 0, "OnDemandeLockers": 16, "XCOORD": 1280822.0, "YCOORD": 172579.0, "LONGITUDE": -122.28714493, "LATITUDE": 47.46380226 }, "geometry": { "type": "Point", "coordinates": [ -122.287142508508197, 47.463804153412028 ] } },
{ "type": "Feature", "properties": { "OBJECTID": 14, "FEATURE_ID": 580002, "CODE": 580, "NAME": "Bear Creek P&R with bicycle lockers", "ADDRESS": "7760 178th Pl NE", "BIKE_LOCKERS": 0, "OnDemandeLockers": 12, "XCOORD": 1328142.0, "YCOORD": 248150.0, "LONGITUDE": -122.10090232, "LATITUDE": 47.67324048 }, "geometry": { "type": "Point", "coordinates": [ -122.10090097774254, 47.673242677347204 ] } },
{ "type": "Feature", "properties": { "OBJECTID": 15, "FEATURE_ID": 580037, "CODE": 580, "NAME": "Mercer Island P&R with bicycle lockers", "ADDRESS": "8000 N Mercer Way", "BIKE_LOCKERS": 0, "OnDemandeLockers": 12, "XCOORD": 1295232.0, "YCOORD": 217863.0, "LONGITUDE": -122.23222663, "LATITUDE": 47.58865871 }, "geometry": { "type": "Point", "coordinates": [ -122.232224817459752, 47.588660687395354 ] } },
{ "type": "Feature", "properties": { "OBJECTID": 16, "FEATURE_ID": 580022, "CODE": 580, "NAME": "Kingsgate P&R with bicycle lockers", "ADDRESS": "13001 116th Way NE", "BIKE_LOCKERS": 8, "OnDemandeLockers": 0, "XCOORD": 1307061.0, "YCOORD": 264468.0, "LONGITUDE": -122.18762142, "LATITUDE": 47.71698521 }, "geometry": { "type": "Point", "coordinates": [ -122.187620210869923, 47.716987253213517 ] } },
{ "type": "Feature", "properties": { "OBJECTID": 17, "FEATURE_ID": 580007, "CODE": 580, "NAME": "Kent/James Street P&R with bicycle lockers", "ADDRESS": "902 W James St", "BIKE_LOCKERS": 4, "OnDemandeLockers": 0, "XCOORD": 1291136.0, "YCOORD": 143997.0, "LONGITUDE": -122.24333931, "LATITUDE": 47.38598468 }, "geometry": { "type": "Point", "coordinates": [ -122.243336451982373, 47.385986635193568 ] } },
{ "type": "Feature", "properties": { "OBJECTID": 18, "FEATURE_ID": 580024, "CODE": 580, "NAME": "Redmond Transit Center with bicycle lockers", "ADDRESS": "16160 NE 83rd St", "BIKE_LOCKERS": 0, "OnDemandeLockers": 12, "XCOORD": 1322528.0, "YCOORD": 249544.0, "LONGITUDE": -122.12378099, "LATITUDE": 47.67680584 }, "geometry": { "type": "Point", "coordinates": [ -122.123779650920355, 47.676807999770077 ] } },
{ "type": "Feature", "properties": { "OBJECTID": 19, "FEATURE_ID": 580004, "CODE": 580, "NAME": "Newport Hills P&R with bicycle lockers", "ADDRESS": "5115 113th Pl SE", "BIKE_LOCKERS": 4, "OnDemandeLockers": 0, "XCOORD": 1305627.0, "YCOORD": 206081.0, "LONGITUDE": -122.18926776000001, "LATITUDE": 47.55687357 }, "geometry": { "type": "Point", "coordinates": [ -122.189265818521775, 47.556875651418181 ] } },
{ "type": "Feature", "properties": { "OBJECTID": 20, "FEATURE_ID": 580021, "CODE": 580, "NAME": "Green Lake P&R with bicycle lockers", "ADDRESS": "6601 8th Ave NE", "BIKE_LOCKERS": 0, "OnDemandeLockers": 16, "XCOORD": 1274055.0, "YCOORD": 250048.0, "LONGITUDE": -122.32054756, "LATITUDE": 47.67578959 }, "geometry": { "type": "Point", "coordinates": [ -122.320546114600944, 47.675791394956171 ] } },
{ "type": "Feature", "properties": { "OBJECTID": 21, "FEATURE_ID": 580023, "CODE": 580, "NAME": "Brickyard Road P&R with bicycle lockers", "ADDRESS": "15530 Juanita-Woodinville Way NE", "BIKE_LOCKERS": 4, "OnDemandeLockers": 0, "XCOORD": 1306984.0, "YCOORD": 273381.0, "LONGITUDE": -122.18857166, "LATITUDE": 47.7414125 }, "geometry": { "type": "Point", "coordinates": [ -122.188570569029352, 47.741414532792426 ] } },
{ "type": "Feature", "properties": { "OBJECTID": 22, "FEATURE_ID": 580035, "CODE": 580, "NAME": "Issaquah Transit Center with bicycle lockers", "ADDRESS": "1050 17th Ave NW", "BIKE_LOCKERS": 0, "OnDemandeLockers": 8, "XCOORD": 1337039.0, "YCOORD": 200087.0, "LONGITUDE": -122.06168122, "LATITUDE": 47.54188894 }, "geometry": { "type": "Point", "coordinates": [ -122.061679274630606, 47.541891317607089 ] } },
{ "type": "Feature", "properties": { "OBJECTID": 23, "FEATURE_ID": 580036, "CODE": 580, "NAME": "Kent Station TC with bicycle lockers", "ADDRESS": "301 Railroad Ave N", "BIKE_LOCKERS": 0, "OnDemandeLockers": 44, "XCOORD": 1293583.0, "YCOORD": 143276.0, "LONGITUDE": -122.23341032, "LATITUDE": 47.38413085 }, "geometry": { "type": "Point", "coordinates": [ -122.233407454422888, 47.384132828461027 ] } },
{ "type": "Feature", "properties": { "OBJECTID": 24, "FEATURE_ID": 580042, "CODE": 580, "NAME": "Tukwila Sounder Station with bicycle lockers", "ADDRESS": "7301 S Longacres Way", "BIKE_LOCKERS": 16, "OnDemandeLockers": 0, "XCOORD": 1292462.0, "YCOORD": 171357.0, "LONGITUDE": -122.24000582, "LATITUDE": 47.46104569 }, "geometry": { "type": "Point", "coordinates": [ -122.24000338873347, 47.461047662042432 ] } },
{ "type": "Feature", "properties": { "OBJECTID": 25, "FEATURE_ID": 580029, "CODE": 580, "NAME": "Tibbetts Lot P&R Bicycle Lockers", "ADDRESS": "1675 Newport Way NW", "BIKE_LOCKERS": 4, "OnDemandeLockers": 0, "XCOORD": 1336909.0, "YCOORD": 199774.0, "LONGITUDE": -122.06218725, "LATITUDE": 47.54102528 }, "geometry": { "type": "Point", "coordinates": [ -122.062185307740648, 47.541027650409887 ] } },
{ "type": "Feature", "properties": { "OBJECTID": 26, "FEATURE_ID": 580003, "CODE": 580, "NAME": "Woodinville P&R with bicycle lockers", "ADDRESS": "17800 140th Ave NE", "BIKE_LOCKERS": 4, "OnDemandeLockers": 0, "XCOORD": 1316280.0, "YCOORD": 278865.0, "LONGITUDE": -122.15117711000001, "LATITUDE": 47.75688704 }, "geometry": { "type": "Point", "coordinates": [ -122.151176126024268, 47.756889089159323 ] } },
{ "type": "Feature", "properties": { "OBJECTID": 27, "FEATURE_ID": 580028, "CODE": 580, "NAME": "Aurora Village Transit Center with bicycle lockers", "ADDRESS": "1524 N 200th St", "BIKE_LOCKERS": 4, "OnDemandeLockers": 12, "XCOORD": 1269455.0, "YCOORD": 286072.0, "LONGITUDE": -122.34208232, "LATITUDE": 47.77428457 }, "geometry": { "type": "Point", "coordinates": [ -122.342081281683335, 47.77428619982112 ] } },
{ "type": "Feature", "properties": { "OBJECTID": 28, "FEATURE_ID": 580027, "CODE": 580, "NAME": "South Renton P&R Bicycle Lockers", "ADDRESS": "S Grady Way & Shattuck Ave", "BIKE_LOCKERS": 0, "OnDemandeLockers": 8, "XCOORD": 1299124.0, "YCOORD": 175455.0, "LONGITUDE": -122.21337629, "LATITUDE": 47.47260907 }, "geometry": { "type": "Point", "coordinates": [ -122.213373927321456, 47.472611107105514 ] } },
{ "type": "Feature", "properties": { "OBJECTID": 29, "FEATURE_ID": 580001, "CODE": 580, "NAME": "Tukwila P&R with bicycle lockers", "ADDRESS": "13445 Interurban Ave S", "BIKE_LOCKERS": 4, "OnDemandeLockers": 4, "XCOORD": 1285604.0, "YCOORD": 179188.0, "LONGITUDE": -122.26831431, "LATITUDE": 47.48216359 }, "geometry": { "type": "Point", "coordinates": [ -122.26831199036009, 47.482165512640833 ] } },
{ "type": "Feature", "properties": { "OBJECTID": 30, "FEATURE_ID": 580015, "CODE": 580, "NAME": "Shoreline P&R with bicycle lockers", "ADDRESS": "18821 Aurora Ave N", "BIKE_LOCKERS": 0, "OnDemandeLockers": 4, "XCOORD": 1268382.0, "YCOORD": 283543.0, "LONGITUDE": -122.34624306000001, "LATITUDE": 47.76729496 }, "geometry": { "type": "Point", "coordinates": [ -122.346242001750525, 47.767296612745419 ] } },
{ "type": "Feature", "properties": { "OBJECTID": 31, "FEATURE_ID": 10000055, "CODE": 580, "NAME": "University of Washington Station with bicycle lockers", "ADDRESS": "3720 Montlake Blvd NE", "BIKE_LOCKERS": 0, "OnDemandeLockers": 60, "XCOORD": 1277978.0, "YCOORD": 240673.0, "LONGITUDE": -122.30389935, "LATITUDE": 47.65029953 }, "geometry": { "type": "Point", "coordinates": [ -122.303897799932997, 47.650301380468989 ] } },
{ "type": "Feature", "properties": { "OBJECTID": 32, "FEATURE_ID": 10000056, "CODE": 580, "NAME": "Rainier Beach Station with bicycle lockers", "ADDRESS": "9132 Martin Luther King Jr. Way S", "BIKE_LOCKERS": 0, "OnDemandeLockers": 34, "XCOORD": 1319231.0, "YCOORD": 233686.0, "LONGITUDE": -122.13607295, "LATITUDE": 47.63318524 }, "geometry": { "type": "Point", "coordinates": [ -122.136071401357427, 47.633187403457178 ] } },
{ "type": "Feature", "properties": { "OBJECTID": 33, "FEATURE_ID": 10000057, "CODE": 580, "NAME": "Othello Station with bicycle lockers", "ADDRESS": "7100 Martin Luther King Jr. Way S", "BIKE_LOCKERS": 22, "OnDemandeLockers": 0, "XCOORD": 1282897.0, "YCOORD": 199316.0, "LONGITUDE": -122.2807904, "LATITUDE": 47.5371957 }, "geometry": { "type": "Point", "coordinates": [ -122.280788343214226, 47.537197601686323 ] } },
{ "type": "Feature", "properties": { "OBJECTID": 34, "FEATURE_ID": 10000059, "CODE": 580, "NAME": "King Street Station with bicycle lockers", "ADDRESS": "300 S King St", "BIKE_LOCKERS": 0, "OnDemandeLockers": 4, "XCOORD": 1271065.0, "YCOORD": 221956.0, "LONGITUDE": -122.33046427, "LATITUDE": 47.59863126 }, "geometry": { "type": "Point", "coordinates": [ -122.330462483306832, 47.598633074691072 ] } },
{ "type": "Feature", "properties": { "OBJECTID": 35, "FEATURE_ID": 10000062, "CODE": 580, "NAME": "Angle Lake Station with bicycle lockers", "ADDRESS": "19908 27th Ave S", "BIKE_LOCKERS": 8, "OnDemandeLockers": 0, "XCOORD": 1277918.0, "YCOORD": 157447.0, "LONGITUDE": -122.29771897000001, "LATITUDE": 47.4221746 }, "geometry": { "type": "Point", "coordinates": [ -122.297716314159743, 47.422176474597869 ] } },
{ "type": "Feature", "properties": { "OBJECTID": 36, "FEATURE_ID": 10000065, "CODE": 580, "NAME": "Evergreen Point P&R with bicycle lockers", "ADDRESS": "2860 Evergreen Point Rd", "BIKE_LOCKERS": 0, "OnDemandeLockers": 16, "XCOORD": 1294307.0464723899, "YCOORD": 235595.84323806001, "LONGITUDE": -122.23728494, "LATITUDE": 47.63721889 }, "geometry": { "type": "Point", "coordinates": [ -122.237283340226625, 47.63722085379279 ] } },
{ "type": "Feature", "properties": { "OBJECTID": 37, "FEATURE_ID": 580032, "CODE": 580, "NAME": "Auburn Station with bicycle lockers", "ADDRESS": " A St SW & 2nd St SW", "BIKE_LOCKERS": 0, "OnDemandeLockers": 32, "XCOORD": 1293485.0, "YCOORD": 114561.0, "LONGITUDE": -122.23170024, "LATITUDE": 47.30541748 }, "geometry": { "type": "Point", "coordinates": [ -122.231696936330152, 47.305419462888757 ] } },
{ "type": "Feature", "properties": { "OBJECTID": 38, "FEATURE_ID": 580033, "CODE": 580, "NAME": "Columbia City Station with bicycle lockers", "ADDRESS": "4818 Martin Luther King Jr. Way S", "BIKE_LOCKERS": 0, "OnDemandeLockers": 28, "XCOORD": 1279956.0, "YCOORD": 207760.0, "LONGITUDE": -122.29334289000001, "LATITUDE": 47.56018845 }, "geometry": { "type": "Point", "coordinates": [ -122.293340939722313, 47.56019032951847 ] } },
{ "type": "Feature", "properties": { "OBJECTID": 39, "FEATURE_ID": 580038, "CODE": 580, "NAME": "Overlake TC with bicycle lockers", "ADDRESS": "15590 NE 36th St ", "BIKE_LOCKERS": 0, "OnDemandeLockers": 0, "XCOORD": 1319231.0, "YCOORD": 233686.0, "LONGITUDE": -122.13607295, "LATITUDE": 47.63318524 }, "geometry": { "type": "Point", "coordinates": [ -122.136071401357427, 47.633187403457178 ] } },
{ "type": "Feature", "properties": { "OBJECTID": 40, "FEATURE_ID": 580039, "CODE": 580, "NAME": "SeaTac/Airport Station with bicycle lockers", "ADDRESS": "International Blvd & S 176th St", "BIKE_LOCKERS": 24, "OnDemandeLockers": 0, "XCOORD": 1278549.0, "YCOORD": 165991.0, "LONGITUDE": -122.29582626, "LATITUDE": 47.44562652 }, "geometry": { "type": "Point", "coordinates": [ -122.295823731719224, 47.445628401617512 ] } },
{ "type": "Feature", "properties": { "OBJECTID": 41, "FEATURE_ID": 580011, "CODE": 580, "NAME": "Kenmore P&R with bicycle lockers", "ADDRESS": "7346 NE Bothell Way", "BIKE_LOCKERS": 12, "OnDemandeLockers": 4, "XCOORD": 1293949.0, "YCOORD": 279429.0, "LONGITUDE": -122.24199071, "LATITUDE": 47.75734869 }, "geometry": { "type": "Point", "coordinates": [ -122.241989640203812, 47.757350613860275 ] } },
{ "type": "Feature", "properties": { "OBJECTID": 42, "FEATURE_ID": 580019, "CODE": 580, "NAME": "South Kirkland P&R with bicycle lockers", "ADDRESS": "10610 NE 38th Pl", "BIKE_LOCKERS": 4, "OnDemandeLockers": 8, "XCOORD": 1304643.0, "YCOORD": 238039.0, "LONGITUDE": -122.19554269, "LATITUDE": 47.64442484 }, "geometry": { "type": "Point", "coordinates": [ -122.195541144766977, 47.644426886633887 ] } },
{ "type": "Feature", "properties": { "OBJECTID": 43, "FEATURE_ID": 580030, "CODE": 580, "NAME": "Valley Center P&R with bicycle Lockers", "ADDRESS": "20221 Vashon Hwy SW", "BIKE_LOCKERS": 4, "OnDemandeLockers": 0, "XCOORD": 1237607.0, "YCOORD": 158601.0, "LONGITUDE": -122.46061544, "LATITUDE": 47.42311816 }, "geometry": { "type": "Point", "coordinates": [ -122.460612793606174, 47.423119801027688 ] } },
{ "type": "Feature", "properties": { "OBJECTID": 44, "FEATURE_ID": 580005, "CODE": 580, "NAME": "Issaquah Highlands P&R with bicycle lockers", "ADDRESS": "1755 Highlands Dr", "BIKE_LOCKERS": 4, "OnDemandeLockers": 8, "XCOORD": 1347353.0, "YCOORD": 201365.0, "LONGITUDE": -122.02000734000001, "LATITUDE": 47.5458357 }, "geometry": { "type": "Point", "coordinates": [ -122.020005436112598, 47.545838163264818 ] } },
{ "type": "Feature", "properties": { "OBJECTID": 45, "FEATURE_ID": 10000058, "CODE": 580, "NAME": "Mount Baker Station with bicycle lockers", "ADDRESS": "2917 Rainier Ave S", "BIKE_LOCKERS": 24, "OnDemandeLockers": 0, "XCOORD": 1278920.0, "YCOORD": 213971.0, "LONGITUDE": -122.29801676, "LATITUDE": 47.57715882 }, "geometry": { "type": "Point", "coordinates": [ -122.29801487981436, 47.577160692298023 ] } },
{ "type": "Feature", "properties": { "OBJECTID": 46, "FEATURE_ID": 10000060, "CODE": 580, "NAME": "Bothell P&R with bicycle lockers", "ADDRESS": "10303 Woodinville Dr", "BIKE_LOCKERS": 0, "OnDemandeLockers": 4, "XCOORD": 1303774.0, "YCOORD": 280251.0, "LONGITUDE": -122.2021125, "LATITUDE": 47.7600878 }, "geometry": { "type": "Point", "coordinates": [ -122.202111476974125, 47.760089763928605 ] } },
{ "type": "Feature", "properties": { "OBJECTID": 47, "FEATURE_ID": 10000061, "CODE": 580, "NAME": "Beacon Hill Station with bicycle lockers", "ADDRESS": "2700 Beacon Ave S", "BIKE_LOCKERS": 0, "OnDemandeLockers": 4, "XCOORD": 1275588.0, "YCOORD": 214843.0, "LONGITUDE": -122.31158162, "LATITUDE": 47.57937433 }, "geometry": { "type": "Point", "coordinates": [ -122.311579748772047, 47.579376185163312 ] } },
{ "type": "Feature", "properties": { "OBJECTID": 48, "FEATURE_ID": 10001482, "CODE": 580, "NAME": "Northgate Station with bicycle lockers", "ADDRESS": "10200 1st Ave NE", "BIKE_LOCKERS": 0, "OnDemandeLockers": 10, "XCOORD": 1272335.0, "YCOORD": 260225.0, "LONGITUDE": -122.32833033, "LATITUDE": 47.70359308 }, "geometry": { "type": "Point", "coordinates": [ -122.328329009308675, 47.703594864818761 ] } },
{ "type": "Feature", "properties": { "OBJECTID": 49, "FEATURE_ID": 10001484, "CODE": 580, "NAME": "U District Station with bicycle lockers", "ADDRESS": "4300 Brooklyn Ave NE", "BIKE_LOCKERS": 0, "OnDemandeLockers": 10, "XCOORD": 1275562.0, "YCOORD": 244296.0, "LONGITUDE": -122.31398241, "LATITUDE": 47.66010314 }, "geometry": { "type": "Point", "coordinates": [ -122.313980900794036, 47.660104965605996 ] } },
{ "type": "Feature", "properties": { "OBJECTID": 50, "FEATURE_ID": 10001483, "CODE": 580, "NAME": "Roosevelt Station with bicycle lockers", "ADDRESS": "6501 12th Ave NE\r\n6501 12th Ave NE\r\n", "BIKE_LOCKERS": 0, "OnDemandeLockers": 10, "XCOORD": 1275160.0, "YCOORD": 250395.0, "LONGITUDE": -122.31609015, "LATITUDE": 47.67679915 }, "geometry": { "type": "Point", "coordinates": [ -122.316088713233071, 47.67680096432489 ] } }
]
}
